병원명,주소,전화번호,진료과목,위도,경도
서울내과의원,서울특별시 강남구 테헤란로 123,02-123-4567,내과,37.501,127.0266
강남정형외과,서울특별시 서초구 반포대로 45,02-234-5678,정형외과,37.4952,127.0182
경기의료원 수원병원,경기도 수원시 장안구 수성로 98,031-345-6789,내과,37.307,127.0095
서울정형외과,서울특별시 마포구 독막로 22,02-987-6543,정형외과,37.5499,126.9543
경기서울내과,경기도 성남시 분당구 정자일로 10,031-876-5432,내과,37.367,127.108
